{"station":[{"id":1,"name":"动物园","lat":31.320171,"lng":120.637093,"address":"北仓街白塔东路交叉口"},{"id":2,"name":"西北街口","lat":31.322341,"lng":120.626605,"address":"朱鸿兴卤菜馆西侧"},{"id":3,"name":"平四路","lat":31.326916,"lng":120.614519,"address":"平四路古城墙旁"},{"id":4,"name":"葑门路口","lat":31.299301,"lng":120.64511,"address":"莫邪路徐公桥北侧"},{"id":5,"name":"公安局旁","lat":31.303917,"lng":120.622737,"address":"人民路公安局南侧"},{"id":6,"name":"和基广场","lat":31.308823,"lng":120.631117,"address":"和基广场前"},{"id":7,"name":"中国邮政","lat":31.317815,"lng":120.624569,"address":"白塔西路邮政储蓄所门口白塔西路邮政储蓄所门口"},{"id":8,"name":"观前街（东）","lat":31.310577,"lng":120.62947,"address":"临顿路醋坊桥观前街东侧公交站点后面"},{"id":9,"name":"火车站长途楼","lat":31.331434,"lng":120.606918,"address":"苏站路"},{"id":10,"name":"三香路家乐福","lat":31.296388,"lng":120.58171,"address":"三香路家乐福公交站台旁"},{"id":11,"name":"新沧花园","lat":31.295669,"lng":120.592622,"address":"桐泾南路吴地人家对面"},{"id":12,"name":"龙港花苑","lat":31.278514,"lng":120.619884,"address":"南环路龙港花苑东侧"},{"id":13,"name":"定慧寺巷","lat":31.306367,"lng":120.63235,"address":"凤凰街276号"},{"id":14,"name":"沧浪区市民中心","lat":31.282008,"lng":120.610378,"address":"解放东路"},{"id":15,"name":"市政府","lat":31.297805,"lng":120.587397,"address":"三香路市政府大门旁"},{"id":16,"name":"三香路工商银行","lat":31.299592,"lng":120.608779,"address":"三香路工商银行旁"},{"id":17,"name":"广电总台","lat":31.29383,"lng":120.634255,"address":"竹辉路广电总台门口"},{"id":18,"name":"市政设施处","lat":31.300378,"lng":120.614069,"address":"道前街市政设施处东侧"},{"id":19,"name":"行政服务中心","lat":31.297983,"lng":120.596538,"address":"三香路行政服务中心门口"},{"id":20,"name":"江苏银行","lat":31.301302,"lng":120.625758,"address":"十梓街江苏银行东侧"},{"id":21,"name":"苏州日报社","lat":31.301848,"lng":120.62848,"address":"十梓街双塔街道门口"},{"id":22,"name":"环境监测中心站","lat":31.299723,"lng":120.60316,"address":"三香路市环境监测中心"},{"id":23,"name":"恒润大厦","lat":31.293056,"lng":120.635483,"address":"竹辉路与南园北路交叉口"},{"id":24,"name":"白塔子桥","lat":31.318283,"lng":120.627158,"address":"市立医院东区"},{"id":25,"name":"市便民服务中心","lat":31.285623,"lng":120.582137,"address":"市容市政局南大门"},{"id":26,"name":"山塘街游客中心","lat":31.316537,"lng":120.603766,"address":"山塘街游客中心门口"},{"id":27,"name":"新民桥南","lat":31.318196,"lng":120.600845,"address":"广济路山塘景区售票处"},{"id":28,"name":"东吴饭店","lat":31.298889,"lng":120.637326,"address":"十全街原石音乐酒吧门口"},{"id":29,"name":"沧浪区政府","lat":31.301912,"lng":120.631337,"address":"十梓街沧浪区政府门口"},{"id":30,"name":"平江路口","lat":31.318865,"lng":120.631903,"address":"白塔东路工商银行门口"},{"id":31,"name":"留园","lat":31.31557,"lng":120.592074,"address":"留园景点西侧"},{"id":32,"name":"倪家苑","lat":31.315691,"lng":120.576791,"address":"西园路西"},{"id":33,"name":"新庄新村","lat":31.317128,"lng":120.574503,"address":"西环路新庄新村西出口"},{"id":34,"name":"金阊区政府","lat":31.321124,"lng":120.573519,"address":"西环路北"},{"id":35,"name":"寒山寺","lat":31.310907,"lng":120.57033,"address":"枫桥路西"},{"id":36,"name":"三元二村","lat":31.306898,"lng":120.578942,"address":"金门路三元二村北门"},{"id":37,"name":"南园桥南堍","lat":31.286088,"lng":120.637522,"address":"南园桥转南门路拐角处"},{"id":38,"name":"25号小区","lat":31.282892,"lng":120.636808,"address":"南园南路"},{"id":39,"name":"好又多","lat":31.27911,"lng":120.627705,"address":"东吴北路南环路交叉口"},{"id":40,"name":"南华公寓","lat":31.279642,"lng":120.634716,"address":"南环新村站台旁"},{"id":41,"name":"博雅苑","lat":31.266252,"lng":120.606684,"address":"宝带西路博雅苑南"},{"id":42,"name":"大润发","lat":31.281797,"lng":120.611987,"address":"解放东路盘胥路交叉口"},{"id":43,"name":"盘景苑","lat":31.288105,"lng":120.611258,"address":"盘胥路盘景苑小区门口"},{"id":44,"name":"阊胥路供电公司","lat":31.304245,"lng":120.606266,"address":"阊胥路干将西路交叉"},{"id":45,"name":"石路","lat":31.310535,"lng":120.603627,"address":"阊胥路爱河桥站"},{"id":46,"name":"黄鹂坊农贸市场","lat":31.309933,"lng":120.610501,"address":"景德路吴趋坊"},{"id":47,"name":"中市桥","lat":31.316305,"lng":120.614216,"address":"东中市中心街交叉口"},{"id":48,"name":"桐泾公园（停用）","lat":31.281265,"lng":120.600185,"address":"桐泾南路桐泾公园门口"},{"id":49,"name":"金桥新村","lat":31.28915,"lng":120.606762,"address":"胥江路金桥新村对面"},{"id":50,"name":"苏州公园","lat":31.304538,"lng":120.627764,"address":"五卅路民治路交叉口"},{"id":51,"name":"会议中心","lat":31.300887,"lng":120.61858,"address":"会议中心广场道前街花坛内侧"},{"id":61,"name":"馨鸿花园","lat":31.307847,"lng":120.584081,"address":"金门路馨泓花园大门东侧"},{"id":62,"name":"石路广场","lat":31.309772,"lng":120.599279,"address":"金门路广济南路"},{"id":63,"name":"天筑家园西门","lat":31.336782,"lng":120.595808,"address":"江河路"},{"id":64,"name":"大观名园北门","lat":31.33587,"lng":120.595813,"address":"江新路"},{"id":65,"name":"平江新城管委会","lat":31.342747,"lng":120.595449,"address":"平泷路江星路"},{"id":66,"name":"火车站北广场","lat":31.331847,"lng":120.607953,"address":"苏站路"},{"id":67,"name":"平江区政府","lat":31.333423,"lng":120.617588,"address":"平江区政府大门北侧"},{"id":68,"name":"汽车北站","lat":31.329638,"lng":120.619433,"address":"汽车站广场西侧"},{"id":69,"name":"日规路天桥口","lat":31.321912,"lng":120.646609,"address":"东环路日规路交叉口"},{"id":70,"name":"苏大校区东大门","lat":31.30347,"lng":120.651866,"address":"东环路学校大门南侧"},{"id":71,"name":"网师园","lat":31.2983,"lng":120.6322,"address":"十全街带城桥路西南侧"},{"id":72,"name":"电力培训中心","lat":31.296081,"lng":120.599311,"address":"劳动路电力培训中心"},{"id":73,"name":"朱家庄新村","lat":31.309259,"lng":120.596377,"address":"枫桥路金门路"},{"id":74,"name":"金阊区少年宫","lat":31.308095,"lng":120.575718,"address":"金门路西环路交叉口"},{"id":75,"name":"经贸大厦","lat":31.296384,"lng":120.578138,"address":"西环路三香路交叉口"},{"id":76,"name":"西环路站4号出口","lat":31.301343,"lng":120.577451,"address":""},{"id":77,"name":"西环路站3号出口","lat":31.301747,"lng":120.578996,"address":""},{"id":78,"name":"市行政中心北门","lat":31.302356,"lng":120.585551,"address":""},{"id":79,"name":"苏州广播电视大学","lat":31.302828,"lng":120.587965,"address":""},{"id":80,"name":"桐泾北路站2号出","lat":31.30281,"lng":120.589628,"address":""},{"id":81,"name":"桐泾北路站1号出","lat":31.30292,"lng":120.590798,"address":""},{"id":82,"name":"彩香一村北门","lat":31.303076,"lng":120.592455,"address":""},{"id":83,"name":"广济南路站4号出","lat":31.304052,"lng":120.600749,"address":""},{"id":84,"name":"干将桥东北堍","lat":31.304946,"lng":120.611633,"address":""},{"id":85,"name":"养育巷1号出口","lat":31.305138,"lng":120.612615,"address":""},{"id":86,"name":"养育巷站3号出口","lat":31.304859,"lng":120.613425,"address":""},{"id":87,"name":"乐桥站1号出口","lat":31.306055,"lng":120.621214,"address":""},{"id":88,"name":"言桥","lat":31.307077,"lng":120.627061,"address":""},{"id":89,"name":"临顿路站1号出口","lat":31.307723,"lng":120.630333,"address":""},{"id":90,"name":"凯莱酒店","lat":31.308888,"lng":120.635306,"address":""},{"id":91,"name":"相门站3号出口","lat":31.309919,"lng":120.638949,"address":""},{"id":92,"name":"相门站1号出口","lat":31.309809,"lng":120.639507,"address":""},{"id":93,"name":"东环路站1号出口","lat":31.311995,"lng":120.649458,"address":""},{"id":94,"name":"新湘苑社区","lat":31.317018,"lng":120.642562,"address":""},{"id":95,"name":"莫邪路日规路口","lat":31.320604,"lng":120.641711,"address":""},{"id":501,"name":"东港二村北门","lat":31.318448,"lng":120.65277,"address":"东环路现代大道"},{"id":502,"name":"印象城购物中心北","lat":31.318989,"lng":120.656992,"address":"现代大道南侧（S227省道东）"},{"id":503,"name":"新馨花园东门","lat":31.310499,"lng":120.661723,"address":"星明街西侧（苏惠路南）"},{"id":505,"name":"天虹商业广场","lat":31.316429,"lng":120.665143,"address":"苏绣路南侧（星都街西）"},{"id":506,"name":"都市花园南门","lat":31.316397,"lng":120.663545,"address":"苏绣路北侧（星兰街口）"},{"id":507,"name":"新城花园南门","lat":31.320505,"lng":120.665047,"address":"现代大道北侧（星都街西）"},{"id":508,"name":"新城邻里中心南","lat":31.321211,"lng":120.669317,"address":"现代大道北侧（星海街西）"},{"id":509,"name":"星海游泳馆","lat":31.320214,"lng":120.670065,"address":"星海街现代大道东南"},{"id":510,"name":"新加花园南门","lat":31.321963,"lng":120.67338,"address":"现代大道北侧（星汉街口）"},{"id":511,"name":"天域小区南门","lat":31.319461,"lng":120.676612,"address":"苏绣路北侧（星港街西）"},{"id":512,"name":"中茵皇冠酒店","lat":31.319768,"lng":120.67938,"address":"香樟园北一支路北侧"},{"id":513,"name":"师惠坊","lat":31.311204,"lng":120.667235,"address":"星都街东侧（苏惠路南）"},{"id":514,"name":"疾病防治中心东","lat":31.309282,"lng":120.667359,"address":"苏茜路北侧（星都街西）"},{"id":515,"name":"加城花园西门","lat":31.307435,"lng":120.672168,"address":"星海街东侧（金鸡湖路北）"},{"id":516,"name":"星海公园西","lat":31.309878,"lng":120.672224,"address":"星海街东侧（苏茜路北）"},{"id":517,"name":"左岸商业街A区","lat":31.313906,"lng":120.674501,"address":"苏惠路星原街西北"},{"id":518,"name":"嘉怡苑西门","lat":31.307788,"lng":120.675867,"address":"星汉街东侧（金鸡湖路北）"},{"id":519,"name":"都市花园西门","lat":31.319346,"lng":120.665567,"address":"星都街东侧（现代大道南）"},{"id":520,"name":"中国银行园区支行","lat":31.315694,"lng":120.672594,"address":"苏华路北侧"},{"id":521,"name":"枫情水岸南门","lat":31.314202,"lng":120.724846,"address":"天宝街和会心街交界处"},{"id":522,"name":"东湖大郡一期东","lat":31.311507,"lng":120.727352,"address":"长乐街和会心街交界处"},{"id":523,"name":"摩天轮公园","lat":31.31664,"lng":120.715201,"address":"锦融街和钟园路交界处"},{"id":524,"name":"玲珑邻里中心","lat":31.329794,"lng":120.700041,"address":"玲珑街和沈浒路交界处"},{"id":525,"name":"中海湖滨一号","lat":31.329833,"lng":120.704003,"address":"沈浒路南侧（玲珑街东）"},{"id":526,"name":"九龙医院西","lat":31.329054,"lng":120.726142,"address":"万盛街东侧（九华路北）"},{"id":527,"name":"青少年活动中心西","lat":31.328406,"lng":120.733094,"address":"南施街东侧（现代大道北）"},{"id":528,"name":"中海星湖国际北门","lat":31.327824,"lng":120.717999,"address":"九华路北侧（星湖街西）"},{"id":529,"name":"湖畔花园西门","lat":31.325768,"lng":120.677884,"address":"星港街东侧（现代大道北）"},{"id":530,"name":"湖滨大道入口南","lat":31.313931,"lng":120.68048,"address":"星港街东侧"},{"id":531,"name":"风之园","lat":31.306275,"lng":120.683506,"address":"星州街金鸡湖路东北"},{"id":532,"name":"百润发超市","lat":31.318347,"lng":120.648479,"address":"东环路现代大道"},{"id":533,"name":"行政服务中心西","lat":31.323734,"lng":120.72122,"address":"星湖街东侧轨道站点附近"},{"id":534,"name":"橄榄湾西门","lat":31.299659,"lng":120.726357,"address":"星湖街东侧（淞江路北）"},{"id":535,"name":"澳韵花园南门","lat":31.306752,"lng":120.739086,"address":"琼姬路北侧（津梁街西第一个门口）"},{"id":536,"name":"湖畔天城南","lat":31.316111,"lng":120.737997,"address":"钟慧路北侧（小区南门入口）"},{"id":537,"name":"农历广场","lat":31.31166,"lng":120.683801,"address":"星州街东侧"},{"id":538,"name":"李公堤入口","lat":31.302129,"lng":120.684798,"address":"李公堤入口景观铺地"},{"id":539,"name":"李公堤中段","lat":31.30245,"lng":120.694436,"address":"金鸡湖景区游客中心西"},{"id":540,"name":"李公堤东端","lat":31.296338,"lng":120.695801,"address":"李公堤三期入口南"},{"id":541,"name":"湖东邻里中心北","lat":31.315215,"lng":120.728465,"address":"邻里生鲜菜场北"},{"id":542,"name":"东方花园南门","lat":31.319752,"lng":120.659623,"address":"现代大道北侧（星明街西）"},{"id":543,"name":"国际科技园西","lat":31.296155,"lng":120.66797,"address":"金鸡湖大道南侧（通园路东）"},{"id":544,"name":"中央公园东门","lat":31.31458,"lng":120.663679,"address":"星兰街西侧"},{"id":545,"name":"国检大厦","lat":31.313216,"lng":120.669011,"address":"星桂街苏惠路西北"},{"id":546,"name":"国际大厦北","lat":31.316997,"lng":120.674872,"address":"星阳街东侧"},{"id":547,"name":"加城湖滨公寓东门","lat":31.323901,"lng":120.677723,"address":"星港街西侧（苏慕路南）"},{"id":548,"name":"沁苑小区北","lat":31.325093,"lng":120.681172,"address":"小区西门以北"},{"id":549,"name":"高尔夫花园西门","lat":31.294426,"lng":120.686172,"address":"星波街东侧（高和路北）"},{"id":550,"name":"金姬墩公园北","lat":31.309064,"lng":120.720802,"address":"琼姬墩路南侧（星湖街西）"},{"id":551,"name":"东城郡东门","lat":31.317737,"lng":120.733239,"address":"南施街西侧（金塔路北）"},{"id":552,"name":"金湖湾西门南","lat":31.317231,"lng":120.733558,"address":"南施街东侧（钟园路南）"},{"id":553,"name":"自由水岸花园西门","lat":31.318846,"lng":120.740717,"address":"津梁街东侧（钟园路南）"},{"id":554,"name":"湖左岸西门","lat":31.312682,"lng":120.675405,"address":"星汉街东侧（苏惠路南）"},{"id":555,"name":"红枫林公园东","lat":31.324467,"lng":120.704277,"address":"观枫街西侧（翠园路比）"},{"id":556,"name":"中塘公园西","lat":31.309282,"lng":120.724388,"address":"星湖街东侧（苏胜路北）"},{"id":557,"name":"人力资源市场南","lat":31.320535,"lng":120.724648,"address":"旺墩路北侧"},{"id":558,"name":"园区行政中心东","lat":31.323622,"lng":120.72634,"address":"万盛街西侧（翠园路南）"},{"id":559,"name":"德邑西门北","lat":31.305652,"lng":120.728078,"address":"长乐街东侧（琼姬路南）"},{"id":560,"name":"伊顿小镇东门北","lat":31.307646,"lng":120.73369,"address":"南施街西侧（琼姬路北）"},{"id":561,"name":"东湖大郡二期东门","lat":31.311789,"lng":120.733464,"address":"南施街西侧（方洲路南）"},{"id":562,"name":"欧典花园北门西","lat":31.312914,"lng":120.736855,"address":"方洲支路南侧"},{"id":563,"name":"方洲邻里中心南","lat":31.314144,"lng":120.742182,"address":"方洲路北侧（津梁街东）"},{"id":564,"name":"方洲公园北","lat":31.317224,"lng":120.745416,"address":"兆佳巷南侧（星塘街东）"},{"id":565,"name":"欧尚超市西","lat":31.304893,"lng":120.657872,"address":"S227省道东侧（金鸡湖路南）"},{"id":566,"name":"圆融时代广场南","lat":31.31911,"lng":120.712063,"address":"旺墩路北侧（华池街西）"},{"id":567,"name":"中海国际社区七区","lat":31.320517,"lng":120.745422,"address":"钟园路北侧（星塘街东）"},{"id":568,"name":"水墨江南东门","lat":31.288919,"lng":120.722223,"address":"东华林街西侧（东延路北第二个门口）"},{"id":569,"name":"东港新村南门","lat":31.318599,"lng":120.652258,"address":"现代大道北侧"},{"id":570,"name":"大湖城邦西门","lat":31.293271,"lng":120.681923,"address":"星州街东侧（高和路北）"},{"id":571,"name":"国际科技园东","lat":31.296054,"lng":120.672659,"address":"金鸡湖大道南侧（星海街东）"},{"id":572,"name":"久光百货南","lat":31.319559,"lng":120.716014,"address":"华池街东侧（圆融桥北）"},{"id":573,"name":"湖东邻里中心西南","lat":31.313902,"lng":120.727464,"address":"新洲幼儿园东北"},{"id":574,"name":"园区城铁站","lat":31.341776,"lng":120.711001,"address":"至和西路（城铁站北面）"},{"id":575,"name":"第五元素小区东门","lat":31.311278,"lng":120.740516,"address":"津梁街"},{"id":576,"name":"东湖林语小区西门","lat":31.31062,"lng":120.740916,"address":"津梁街"},{"id":577,"name":"亿城新天地南门","lat":31.337251,"lng":120.759586,"address":"沈浒路"},{"id":578,"name":"金鸡湖大酒店","lat":31.285194,"lng":120.706562,"address":"国宾路南端"},{"id":580,"name":"荣域小区东门","lat":31.283209,"lng":120.724618,"address":"星湖街靠近独墅湖大道"},{"id":581,"name":"朗诗国际小区西门","lat":31.305106,"lng":120.740878,"address":"津梁街西"},{"id":582,"name":"凤凰城小区西门","lat":31.307467,"lng":120.766525,"address":"榭雨街靠近苏胜路"},{"id":583,"name":"湖西社工委东门","lat":31.311672,"lng":120.67154,"address":"师惠坊东门"},{"id":584,"name":"东环路3a号出口","lat":31.312247,"lng":120.650391,"address":"东环路与中新路东北角"},{"id":585,"name":"东环路2号出口","lat":31.311945,"lng":120.650927,"address":"东环路与中新路东南角"},{"id":586,"name":"中央公园2b号出口","lat":31.314323,"lng":120.660589,"address":"中新路与星明街东北角"},{"id":587,"name":"中央公园1b号出口","lat":31.313278,"lng":120.66046,"address":"中新路与星明街西南角"},{"id":588,"name":"星海生活广场北","lat":31.316099,"lng":120.670194,"address":"苏雅路与星海街西北角"},{"id":589,"name":"星海广场2号出口","lat":31.314839,"lng":120.671267,"address":"星海街与苏华路东南角"},{"id":590,"name":"星港街贵宾廊","lat":31.317563,"lng":120.680381,"address":"星港街贵宾廊南侧"},{"id":591,"name":"艺术中心北","lat":31.32334,"lng":120.703601,"address":"翠园路与观枫街西南角"},{"id":592,"name":"时代广场4号出口","lat":31.323234,"lng":120.712752,"address":"翠园路与华池街西北角"},{"id":593,"name":"时代广场1号出口","lat":31.322538,"lng":120.71257,"address":"翠园路与华池街西南角"},{"id":594,"name":"星湖街2号出口","lat":31.322865,"lng":120.720928,"address":"星湖街与翠园路东南角"},{"id":595,"name":"南施街3号出口","lat":31.324937,"lng":120.733416,"address":"南施街与翠园路东北角"},{"id":596,"name":"南施街1号出口","lat":31.323988,"lng":120.732944,"address":"南施街与翠园路西南角"},{"id":597,"name":"星塘街1c号出口","lat":31.326486,"lng":120.743815,"address":"星塘街与翠园路西北角"},{"id":598,"name":"星塘街3号出口","lat":31.325688,"lng":120.745084,"address":"星塘街与翠园路东南角"},{"id":599,"name":"钟南街3号出口","lat":31.326761,"lng":120.756741,"address":"钟南街与翠园路东北角"},{"id":600,"name":"钟南街1号出口","lat":31.326073,"lng":120.755818,"address":"钟南街与翠园路西南角"},{"id":601,"name":"贵都邻里中心","lat":31.31342,"lng":120.657748,"address":"中新路贵都邻里中心南"},{"id":602,"name":"星湖街3号出口","lat":31.324144,"lng":120.720753,"address":"星湖街与翠园路东北角"},{"id":603,"name":"服务中心(暂停)","lat":31.299338,"lng":120.687762,"address":""},{"id":611,"name":"玲珑湾北门","lat":31.330177,"lng":120.696061,"address":""},{"id":612,"name":"中央景城南门","lat":31.328807,"lng":120.722644,"address":""},{"id":613,"name":"圆融大厦邮政局","lat":31.321076,"lng":120.726941,"address":""},{"id":614,"name":"东湖大郡三期","lat":31.317614,"lng":120.727142,"address":""},{"id":615,"name":"水墨三十度","lat":31.321124,"lng":120.755517,"address":""},{"id":616,"name":"苏都花园","lat":31.31186,"lng":120.664298,"address":""},{"id":617,"name":"印象城西","lat":31.316269,"lng":120.656635,"address":""},{"id":618,"name":"产业园","lat":31.306795,"lng":120.776549,"address":""},{"id":619,"name":"名湖家园","lat":31.295621,"lng":120.724291,"address":""},{"id":620,"name":"城邦花园","lat":31.292739,"lng":120.678492,"address":""},{"id":621,"name":"御湖西岸北门","lat":31.299996,"lng":120.682988,"address":""},{"id":622,"name":"太阳城","lat":31.330658,"lng":120.764666,"address":""},{"id":624,"name":"星湖名轩","lat":31.285953,"lng":120.725031,"address":"星湖街、东延路路口东南"},{"id":625,"name":"苏大二期东","lat":31.270621,"lng":120.737633,"address":"苏大公寓2期门口"},{"id":626,"name":"苏大一期东","lat":31.273384,"lng":120.736399,"address":"苏大公寓1期门口"},{"id":627,"name":"西交利物浦","lat":31.275408,"lng":120.737877,"address":"西交利物浦大学大门东"},{"id":628,"name":"创意产业园北","lat":31.265571,"lng":120.732048,"address":"苏大南门"},{"id":629,"name":"创意产业园西","lat":31.263117,"lng":120.731034,"address":""},{"id":630,"name":"生物纳米园","lat":31.259318,"lng":120.730546,"address":"新平路生物纳米园公交站东"},{"id":631,"name":"中科纳米所","lat":31.256035,"lng":120.734189,"address":"若水路纳米园大门东"},{"id":632,"name":"创意产业园东","lat":31.266031,"lng":120.737528,"address":""},{"id":633,"name":"腾飞创新园","lat":31.25279,"lng":120.735369,"address":""},{"id":634,"name":"菁英公寓北","lat":31.250004,"lng":120.727775,"address":"菁英公寓北往东"},{"id":635,"name":"翰林邻里中心","lat":31.275612,"lng":120.744719,"address":"翰林邻里中心麦当劳门口"},{"id":636,"name":"文星广场","lat":31.275704,"lng":120.742214,"address":"文星广场大门东"},{"id":637,"name":"港大思培学院","lat":31.275562,"lng":120.742289,"address":"港大思培学院大门东"},{"id":638,"name":"苏州大学北","lat":31.275206,"lng":120.730954,"address":"仁爱路北门"},{"id":639,"name":"综合楼","lat":31.275603,"lng":120.725477,"address":"武汉大学门口东"},{"id":640,"name":"独墅湖图书馆","lat":31.275598,"lng":120.722113,"address":"仁爱路往西到头"},{"id":641,"name":"白鹭园","lat":31.269759,"lng":120.722781,"address":"白鹭园3号入口北"},{"id":642,"name":"教育发展大厦","lat":31.263209,"lng":120.724728,"address":"教育发展大厦大楼门口"},{"id":643,"name":"星月坊商业街","lat":31.260602,"lng":120.723283,"address":"螺蛳饭店正门口"},{"id":644,"name":"星湖街月亮湾","lat":31.26278,"lng":120.727614,"address":"月亮湾公交站旁"},{"id":645,"name":"体育公园东","lat":31.270261,"lng":120.743625,"address":""},{"id":646,"name":"翰林缘","lat":31.27776,"lng":120.744215,"address":"翰林缘西门"},{"id":647,"name":"文汇广场","lat":31.269778,"lng":120.748318,"address":"独墅湖科教创新区医院"},{"id":648,"name":"公交首末站","lat":31.267723,"lng":120.749359,"address":"永安桥派出所对面"},{"id":649,"name":"工业技术学校","lat":31.260715,"lng":120.742114,"address":"工业技术学校公交站东"},{"id":650,"name":"评弹学校","lat":31.25661,"lng":120.745604,"address":"评弹学院大门东"},{"id":651,"name":"服务外包学院","lat":31.259832,"lng":120.747374,"address":"服务外包学院大门西"},{"id":652,"name":"职业技术学院","lat":31.259045,"lng":120.752798,"address":"职业技术学院大门西"},{"id":653,"name":"独墅湖影剧院","lat":31.266882,"lng":120.725892,"address":""},{"id":654,"name":"月亮湾国际中心","lat":31.265484,"lng":120.722628,"address":"浙商银行门口"},{"id":655,"name":"苏大文景路","lat":31.269289,"lng":120.728709,"address":"星湖街文景路东"},{"id":656,"name":"建屋国际酒店东门","lat":31.317678,"lng":120.719166,"address":""},{"id":657,"name":"新屹大厦北","lat":31.34042,"lng":120.65386,"address":""},{"id":658,"name":"泾园商业街","lat":31.34089,"lng":120.66095,"address":""},{"id":659,"name":"临芳苑商业广场","lat":31.34246,"lng":120.68258,"address":""},{"id":660,"name":"临芳苑二区","lat":31.33905,"lng":120.68418,"address":""},{"id":661,"name":"天骄花园","lat":31.34084,"lng":120.65506,"address":""},{"id":662,"name":"泾园新村北","lat":31.34083,"lng":120.65672,"address":""},{"id":663,"name":"泾园新村南","lat":31.34073,"lng":120.65687,"address":""},{"id":664,"name":"泾园农贸市场","lat":31.33922,"lng":120.66243,"address":""},{"id":665,"name":"临芳苑四区","lat":31.34466,"lng":120.68413,"address":""},{"id":666,"name":"临芳苑三区","lat":31.34182,"lng":120.68334,"address":""},{"id":667,"name":"泾园二村","lat":31.34097,"lng":120.66249,"address":""},{"id":668,"name":"泾园南社区","lat":31.33935,"lng":120.66531,"address":""},{"id":669,"name":"独墅苑","lat":31.294,"lng":120.66465,"address":""},{"id":670,"name":"金益农贸市场","lat":31.29014,"lng":120.67247,"address":""},{"id":671,"name":"朗琴湾","lat":31.28917,"lng":120.66712,"address":""},{"id":672,"name":"娄葑街道办西","lat":31.28756,"lng":120.66557,"address":""},{"id":673,"name":"娄葑文体中心","lat":31.28816,"lng":120.66191,"address":""},{"id":674,"name":"金益四村北","lat":31.28608,"lng":120.67095,"address":""},{"id":675,"name":"新华苑","lat":31.28535,"lng":120.666,"address":""},{"id":676,"name":"群星苑五区","lat":31.28499,"lng":120.66206,"address":""},{"id":677,"name":"群星苑村","lat":31.28328,"lng":120.67435,"address":""},{"id":678,"name":"锦程公寓","lat":31.2826,"lng":120.66661,"address":""},{"id":679,"name":"东兴路商业街","lat":31.27892,"lng":120.66356,"address":""},{"id":680,"name":"群星苑三区","lat":31.27832,"lng":120.65867,"address":""},{"id":681,"name":"娄葑人力市场","lat":31.29305,"lng":120.65787,"address":""},{"id":682,"name":"金益一村东门","lat":31.29,"lng":120.67043,"address":""},{"id":683,"name":"群谊新村","lat":31.28699,"lng":120.66195,"address":""},{"id":684,"name":"金益二村北门","lat":31.28972,"lng":120.6731,"address":""},{"id":685,"name":"天骄美地","lat":31.29312,"lng":120.65997,"address":""},{"id":686,"name":"黄天荡新村","lat":31.29205,"lng":120.66154,"address":""},{"id":687,"name":"欧洲花园","lat":31.29138,"lng":120.66504,"address":""},{"id":688,"name":"荷花苑","lat":31.28749,"lng":120.66747,"address":""},{"id":689,"name":"北摆宴街公交站","lat":31.28928,"lng":120.66383,"address":""},{"id":690,"name":"东环路家乐福超市","lat":31.28938,"lng":120.65526,"address":""},{"id":691,"name":"南摆宴街公交站","lat":31.28698,"lng":120.66401,"address":""},{"id":692,"name":"群星苑一区","lat":31.2819,"lng":120.66656,"address":""},{"id":693,"name":"群星苑四区","lat":31.28187,"lng":120.66214,"address":""},{"id":694,"name":"群星苑二区","lat":31.27901,"lng":120.66273,"address":""},{"id":695,"name":"金益一村南门","lat":31.28831,"lng":120.66938,"address":""},{"id":696,"name":"荷韵新村东区西门","lat":31.29752,"lng":120.7311,"address":""},{"id":697,"name":"莲香北区南门","lat":31.29942,"lng":120.743,"address":""},{"id":698,"name":"斜塘医院","lat":31.29831,"lng":120.73777,"address":""},{"id":699,"name":"荷花公园","lat":31.2956,"lng":120.73411,"address":""},{"id":700,"name":"斜塘农贸市场","lat":31.29303,"lng":120.74339,"address":""},{"id":701,"name":"莲香三区南","lat":31.29604,"lng":120.74116,"address":""},{"id":702,"name":"荷韵农贸市场","lat":31.29525,"lng":120.72971,"address":""},{"id":703,"name":"绿洲别墅","lat":31.29459,"lng":120.72861,"address":""},{"id":704,"name":"顺达商业广场南","lat":31.28619,"lng":120.72782,"address":""},{"id":705,"name":"顺达商业广场东","lat":31.28695,"lng":120.72971,"address":""},{"id":706,"name":"莲花六区南门","lat":31.28624,"lng":120.73148,"address":""},{"id":707,"name":"莲花四区南门","lat":31.28622,"lng":120.73466,"address":""},{"id":708,"name":"莲花二区南门","lat":31.28623,"lng":120.74482,"address":""},{"id":709,"name":"莲花一区北门","lat":31.2861,"lng":120.74482,"address":""},{"id":710,"name":"莲花农贸市场","lat":31.28456,"lng":120.73791,"address":""},{"id":711,"name":"莲花五区北门","lat":31.28605,"lng":120.73144,"address":""},{"id":712,"name":"莲花商业街","lat":31.28725,"lng":120.73892,"address":""},{"id":713,"name":"荷韵新村北门","lat":31.29915,"lng":120.73031,"address":""},{"id":714,"name":"金色尚城","lat":31.29986,"lng":120.73103,"address":""},{"id":715,"name":"联丰广场南","lat":31.29578,"lng":120.73707,"address":""},{"id":716,"name":"敦煌一区北门","lat":31.29609,"lng":120.74314,"address":""},{"id":717,"name":"敦煌三区北门","lat":31.29438,"lng":120.73816,"address":""},{"id":718,"name":"莲花八区东门","lat":31.29056,"lng":120.72962,"address":""},{"id":719,"name":"荷韵南区东门","lat":31.29461,"lng":120.73415,"address":""},{"id":720,"name":"斜塘欧尚超市","lat":31.29905,"lng":120.7405,"address":""},{"id":721,"name":"莲花六区东门","lat":31.28878,"lng":120.73404,"address":""},{"id":722,"name":"莲花五区东门","lat":31.28312,"lng":120.7341,"address":""},{"id":723,"name":"莲花四区东门","lat":31.28852,"lng":120.73879,"address":""},{"id":724,"name":"娄葑高新公司","lat":31.29231,"lng":120.72998,"address":""},{"id":725,"name":"莲花三区北门","lat":31.28606,"lng":120.7348,"address":""},{"id":726,"name":"星坊便利中心","lat":31.2489,"lng":120.7471,"address":""},{"id":727,"name":"淞泽家园一区","lat":31.24448,"lng":120.74458,"address":""},{"id":728,"name":"淞泽家园四区","lat":31.24673,"lng":120.7384,"address":""},{"id":729,"name":"淞泽家园九区","lat":31.24278,"lng":120.74369,"address":""},{"id":730,"name":"车坊农贸市场北","lat":31.24573,"lng":120.73727,"address":""},{"id":731,"name":"星湖财富广场","lat":31.24455,"lng":120.73537,"address":""},{"id":732,"name":"淞泽家园八区","lat":31.24274,"lng":120.73185,"address":""},{"id":733,"name":"淞泽家园七区","lat":31.24248,"lng":120.73126,"address":""},{"id":734,"name":"江滨公园","lat":31.2405,"lng":120.73483,"address":""},{"id":735,"name":"淞泽家园二区","lat":31.24931,"lng":120.74177,"address":""},{"id":736,"name":"淞泽家园六区","lat":31.24478,"lng":120.7352,"address":""},{"id":737,"name":"普惠路永庆路","lat":31.2493,"lng":120.75153,"address":""},{"id":738,"name":"南澳花园","lat":31.25134,"lng":120.7571,"address":""},{"id":739,"name":"苏安新村西门","lat":31.32767,"lng":120.64529,"address":""},{"id":740,"name":"新苏苑二区南门","lat":31.32697,"lng":120.65256,"address":""},{"id":741,"name":"新苏大厦","lat":31.32146,"lng":120.64739,"address":""},{"id":742,"name":"夏园新村","lat":31.30582,"lng":120.65552,"address":""},{"id":743,"name":"夏家桥花园","lat":31.30089,"lng":120.65597,"address":""},{"id":744,"name":"徐家浜西门","lat":31.30811,"lng":120.65116,"address":""},{"id":745,"name":"东环大厦","lat":31.31718,"lng":120.64857,"address":""},{"id":746,"name":"徐家浜二村南门","lat":31.30605,"lng":120.65695,"address":""},{"id":747,"name":"苏安新村南门","lat":31.3258,"lng":120.6484,"address":""},{"id":748,"name":"富华苑南门","lat":31.29692,"lng":120.65676,"address":""},{"id":749,"name":"恒润后街西","lat":31.29291,"lng":120.65538,"address":""},{"id":750,"name":"苏杭时代购物广场","lat":31.34135,"lng":120.68778,"address":""},{"id":751,"name":"蠡塘路公交首末站","lat":31.34552,"lng":120.68893,"address":""},{"id":752,"name":"联发集贸市场","lat":31.34565,"lng":120.69189,"address":""},{"id":753,"name":"张泾一区西门","lat":31.34053,"lng":120.69428,"address":""},{"id":754,"name":"锦丰泰盛生活广场","lat":31.34366,"lng":120.69681,"address":""},{"id":755,"name":"唯亭文体中心","lat":31.34701,"lng":120.69566,"address":""},{"id":756,"name":"渔泾路停车场","lat":31.34584,"lng":120.69821,"address":""},{"id":757,"name":"云顶花园","lat":31.3436,"lng":120.69934,"address":""},{"id":758,"name":"古娄二村三区","lat":31.34074,"lng":120.70085,"address":""},{"id":759,"name":"跨塘华联超市","lat":31.34438,"lng":120.69297,"address":""},{"id":760,"name":"高浜二村","lat":31.34409,"lng":120.69136,"address":""},{"id":761,"name":"三之三唯亭幼儿园","lat":31.34534,"lng":120.70078,"address":""},{"id":762,"name":"古娄一村四区南门","lat":31.34851,"lng":120.70068,"address":""},{"id":763,"name":"青剑湖花园E区西","lat":31.354663,"lng":120.702152,"address":""},{"id":764,"name":"青剑湖花园E区北","lat":31.356166,"lng":120.703354,"address":""},{"id":765,"name":"青剑湖商业中心","lat":31.356899,"lng":120.708117,"address":""},{"id":766,"name":"青剑湖社区B区东","lat":31.355982,"lng":120.70992,"address":""},{"id":767,"name":"青剑湖邻里中心","lat":31.357558,"lng":120.713482,"address":""},{"id":768,"name":"青剑湖花园A区东","lat":31.359537,"lng":120.710092,"address":""},{"id":769,"name":"观澜丽宫南","lat":31.368478,"lng":120.720563,"address":""},{"id":770,"name":"和泰都市南门","lat":31.362615,"lng":120.71537,"address":""},{"id":771,"name":"唯亭创业基地南","lat":31.365364,"lng":120.714941,"address":""},{"id":772,"name":"生态体育公园南","lat":31.367709,"lng":120.706615,"address":""},{"id":773,"name":"星湖客南门","lat":31.367929,"lng":120.711722,"address":""},{"id":774,"name":"青湖丽苑南门","lat":31.367965,"lng":120.714254,"address":""},{"id":775,"name":"栖湖名苑南","lat":31.376246,"lng":120.713782,"address":""},{"id":776,"name":"雍景湾花园东","lat":31.370604,"lng":120.710778,"address":""},{"id":777,"name":"生态体育公园东","lat":31.373572,"lng":120.709319,"address":""},{"id":778,"name":"唯盛邻里中心","lat":31.373462,"lng":120.713096,"address":""},{"id":779,"name":"生态体育公园","lat":31.372436,"lng":120.706058,"address":""},{"id":780,"name":"跨塘医院","lat":31.34704,"lng":120.69274,"address":""},{"id":781,"name":"金色湖滨","lat":31.374598,"lng":120.719748,"address":""},{"id":782,"name":"青剑湖商业广场","lat":31.360453,"lng":120.71876,"address":""},{"id":783,"name":"星湖街葑亭大道口","lat":31.35002,"lng":120.7175,"address":""},{"id":784,"name":"湖滨邻里中心","lat":31.357155,"lng":120.721636,"address":""},{"id":785,"name":"新娄商业中心","lat":31.34948,"lng":120.7264,"address":""},{"id":786,"name":"新唯花园","lat":31.35054,"lng":120.73043,"address":""},{"id":787,"name":"跨塘交警中队","lat":31.35194,"lng":120.74654,"address":""},{"id":788,"name":"创苑小区","lat":31.35084,"lng":120.728,"address":""},{"id":789,"name":"科技城邻里中心","lat":31.373572,"lng":120.736485,"address":""},{"id":790,"name":"翡翠湖公寓","lat":31.371373,"lng":120.737171,"address":""},{"id":791,"name":"湖语花园商业区","lat":31.36661,"lng":120.737686,"address":""},{"id":792,"name":"科技城工业坊","lat":31.364191,"lng":120.741677,"address":""},{"id":794,"name":"维纳阳光花园北区","lat":31.372766,"lng":120.752707,"address":""},{"id":795,"name":"维纳阳光花园南区","lat":31.369028,"lng":120.755453,"address":""},{"id":796,"name":"阳澄人家","lat":31.415223,"lng":120.777597,"address":""},{"id":797,"name":"莲池湖公园","lat":31.413795,"lng":120.782576,"address":""},{"id":798,"name":"亭苑新村西门","lat":31.363605,"lng":120.767341,"address":""},{"id":799,"name":"亭苑新村北门","lat":31.36606,"lng":120.770259,"address":""},{"id":800,"name":"青灯新村","lat":31.364411,"lng":120.77455,"address":""},{"id":801,"name":"唯亭学校东","lat":31.360856,"lng":120.774336,"address":""},{"id":802,"name":"畅苑新村三区","lat":31.364887,"lng":120.779443,"address":""},{"id":803,"name":"金陵西路邮政局","lat":31.356349,"lng":120.779099,"address":""},{"id":804,"name":"东亭家园西门","lat":31.3547,"lng":120.780129,"address":""},{"id":805,"name":"青苑新村五区","lat":31.36661,"lng":120.782404,"address":""},{"id":806,"name":"畅苑疏新村","lat":31.362029,"lng":120.780859,"address":""},{"id":807,"name":"朱惠珍纪念馆","lat":31.357961,"lng":120.783691,"address":""},{"id":808,"name":"黄金港公园","lat":31.364191,"lng":120.784636,"address":""},{"id":809,"name":"夷亭路农贸市场","lat":31.359244,"lng":120.79103,"address":""},{"id":810,"name":"唯亭办事处","lat":31.357228,"lng":120.792918,"address":""},{"id":811,"name":"唯亭镇财富中心","lat":31.360856,"lng":120.794506,"address":""},{"id":812,"name":"青苑二区东门","lat":31.363348,"lng":120.79,"address":""},{"id":813,"name":"青苑商业街","lat":31.366683,"lng":120.788498,"address":""},{"id":814,"name":"悬珠花园","lat":31.371446,"lng":120.789742,"address":""},{"id":815,"name":"浅水湾商业街","lat":31.378371,"lng":120.794163,"address":""},{"id":816,"name":"怡邻花园二区西","lat":31.37533,"lng":120.803733,"address":""},{"id":817,"name":"怡邻花园四区东","lat":31.372656,"lng":120.803905,"address":""},{"id":818,"name":"雍合湾花园","lat":31.361626,"lng":120.803733,"address":""},{"id":819,"name":"亭南新村","lat":31.350485,"lng":120.803132,"address":""},{"id":820,"name":"融锦苑西门","lat":31.361479,"lng":120.798969,"address":""},{"id":821,"name":"唯东富民便利中心","lat":31.368988,"lng":120.826607,"address":""},{"id":822,"name":"重元寺东","lat":31.404198,"lng":120.786052,"address":""},{"id":823,"name":"张泾新村南门","lat":31.33845,"lng":120.6929,"address":""},{"id":824,"name":"唯亭虹桥公交站","lat":31.358511,"lng":120.717731,"address":""},{"id":825,"name":"悦澜花园东门","lat":31.36005,"lng":120.72155,"address":""},{"id":826,"name":"葑亭大道港浪路","lat":31.35584,"lng":120.74665,"address":""},{"id":828,"name":"竹苑新村","lat":31.304992,"lng":120.819848,"address":""},{"id":829,"name":"星胜客东","lat":31.30127,"lng":120.820792,"address":""},{"id":830,"name":"吴淞新村东区西门","lat":31.299253,"lng":120.82135,"address":""},{"id":831,"name":"金淞湾花园北","lat":31.296466,"lng":120.824397,"address":""},{"id":832,"name":"金雅苑西","lat":31.302572,"lng":120.82504,"address":""},{"id":833,"name":"新盛花园西区北门","lat":31.30237,"lng":120.827615,"address":""},{"id":834,"name":"吴淞商业广场","lat":31.296668,"lng":120.829375,"address":""},{"id":835,"name":"胜浦实验小学","lat":31.29643,"lng":120.832486,"address":""},{"id":836,"name":"金苑二村西门","lat":31.307503,"lng":120.826843,"address":""},{"id":837,"name":"金苑一村南门","lat":31.305212,"lng":120.825298,"address":""},{"id":838,"name":"胜浦商贸市场","lat":31.302663,"lng":120.829182,"address":""},{"id":839,"name":"胜浦农贸市场","lat":31.312142,"lng":120.829697,"address":""},{"id":840,"name":"园东新村北","lat":31.309557,"lng":120.829203,"address":""},{"id":841,"name":"园东新村","lat":31.305725,"lng":120.830276,"address":""},{"id":842,"name":"新盛花园东门","lat":31.29962,"lng":120.831649,"address":""},{"id":843,"name":"吴胜路公交首末站","lat":31.29962,"lng":120.835876,"address":""},{"id":844,"name":"胜浦公园北入口","lat":31.310895,"lng":120.822229,"address":""},{"id":845,"name":"瑞翔商业广场","lat":31.307302,"lng":120.819139,"address":""},{"id":846,"name":"胜浦公园广场","lat":31.308695,"lng":120.822659,"address":""},{"id":847,"name":"振胜路停车场","lat":31.310602,"lng":120.82901,"address":""},{"id":848,"name":"东景公寓北门","lat":31.305597,"lng":120.82931,"address":""},{"id":849,"name":"金邻苑南","lat":31.302847,"lng":120.830147,"address":""},{"id":850,"name":"新盛花园西门","lat":31.298758,"lng":120.826156,"address":""},{"id":851,"name":"园东社区商业广场","lat":31.298831,"lng":120.831821,"address":""},{"id":852,"name":"嘉馨苑小区","lat":31.3016,"lng":120.823216,"address":""},{"id":853,"name":"闻涛苑南","lat":31.293734,"lng":120.830448,"address":""},{"id":854,"name":"胜浦公园南门","lat":31.3049,"lng":120.823731,"address":""},{"id":855,"name":"盛景华庭西门","lat":31.304093,"lng":120.824568,"address":""},{"id":856,"name":"滨江苑","lat":31.291992,"lng":120.837057,"address":""},{"id":857,"name":"信园","lat":31.3478,"lng":120.7318,"address":""},{"id":858,"name":"青苑六区","lat":31.36622,"lng":120.7784,"address":""},{"id":859,"name":"临湖壹号","lat":31.37272,"lng":120.7181,"address":""},{"id":860,"name":"汀兰家园","lat":31.348275,"lng":120.797634,"address":""},{"id":861,"name":"青年公社","lat":31.3257,"lng":120.8015,"address":""},{"id":862,"name":"白塘景苑东门","lat":31.33439,"lng":120.7437,"address":""},{"id":863,"name":"金鸡湖邻里中心","lat":31.29502,"lng":120.7186,"address":""},{"id":864,"name":"东沙湖邻里中心","lat":31.3341,"lng":120.7571,"address":""},{"id":1001,"name":"何山路大润发","lat":31.306312,"lng":120.563107,"address":""},{"id":1002,"name":"轨交滨河路站","lat":31.301288,"lng":120.565531,"address":""},{"id":1003,"name":"中财保险","lat":31.294614,"lng":120.570145,"address":""},{"id":1004,"name":"永利广场","lat":31.291241,"lng":120.574222,"address":""},{"id":1005,"name":"何山路塔园路东南","lat":31.306018,"lng":120.554738,"address":""},{"id":1006,"name":"轨交塔园路站","lat":31.30083,"lng":120.556841,"address":""},{"id":1007,"name":"狮山新苑东门","lat":31.297511,"lng":120.562162,"address":""},{"id":1008,"name":"天狮公园","lat":31.293973,"lng":120.561326,"address":""},{"id":1009,"name":"枫津小游园","lat":31.30933,"lng":120.547338,"address":""},{"id":1010,"name":"绿宝广场","lat":31.30083,"lng":120.548687,"address":""},{"id":1011,"name":"苏州实验中学","lat":31.296485,"lng":120.553408,"address":""},{"id":1012,"name":"苏州乐园北","lat":31.293519,"lng":120.549041,"address":""},{"id":1013,"name":"名城花园北门","lat":31.292781,"lng":120.553461,"address":""},{"id":1014,"name":"嘉多利花园","lat":31.291956,"lng":120.557871,"address":""},{"id":1015,"name":"钻石广场","lat":31.285666,"lng":120.559523,"address":""},{"id":1016,"name":"馨泰花苑南门","lat":31.281375,"lng":120.555317,"address":""},{"id":1017,"name":"轨交玉山公园站","lat":31.283466,"lng":120.549653,"address":""},{"id":1018,"name":"乐园国际电影城","lat":31.283832,"lng":120.544224,"address":""},{"id":1019,"name":"狮山街道服务中心","lat":31.283484,"lng":120.537443,"address":""},{"id":1020,"name":"轨交汾湖路站","lat":31.277934,"lng":120.54148,"address":""},{"id":1021,"name":"轨交金枫路站","lat":31.27701,"lng":120.530083,"address":""},{"id":1022,"name":"苏州乐园南","lat":31.292359,"lng":120.549041,"address":""},{"id":1023,"name":"金狮大厦","lat":31.295439,"lng":120.568235,"address":""},{"id":1024,"name":"金山路滨河路","lat":31.298006,"lng":120.566626,"address":""},{"id":1025,"name":"高新国际会展中心","lat":31.320721,"lng":120.550661,"address":""},{"id":1026,"name":"马浜花园东门","lat":31.31623,"lng":120.560317,"address":""},{"id":1027,"name":"今日家园","lat":31.30985,"lng":120.563514,"address":""},{"id":1028,"name":"新升新苑北门","lat":31.283704,"lng":120.539718,"address":""},{"id":1029,"name":"科技学院","lat":31.304533,"lng":120.564458,"address":""},{"id":1030,"name":"玉山公园","lat":31.285446,"lng":120.549159,"address":""},{"id":1031,"name":"金色家园","lat":31.283997,"lng":120.532401,"address":""},{"id":1032,"name":"青春社区","lat":31.27558,"lng":120.57641,"address":""},{"id":1033,"name":"星韵花园","lat":31.278478,"lng":120.570617,"address":""},{"id":1034,"name":"横山社区","lat":31.26641,"lng":120.567527,"address":""},{"id":1035,"name":"苏州高等技术学校","lat":31.270225,"lng":120.561862,"address":""},{"id":1036,"name":"麦德龙","lat":31.316651,"lng":120.545082,"address":""},{"id":1037,"name":"科技工业园","lat":31.277744,"lng":120.565553,"address":""},{"id":1038,"name":"何山路北俞街","lat":31.305927,"lng":120.537765,"address":""},{"id":1039,"name":"车管所","lat":31.322517,"lng":120.550661,"address":""},{"id":1040,"name":"武警支队","lat":31.314415,"lng":120.552807,"address":""},{"id":1041,"name":"人寿保险","lat":31.293331,"lng":120.563149,"address":""},{"id":1042,"name":"锦华苑","lat":31.294174,"lng":120.564137,"address":""},{"id":1043,"name":"农行","lat":31.293294,"lng":120.565853,"address":""},{"id":1044,"name":"工行","lat":31.293056,"lng":120.567827,"address":""},{"id":1045,"name":"玉山路滨河路","lat":31.289077,"lng":120.570488,"address":""},{"id":1046,"name":"交警支队","lat":31.325413,"lng":120.545983,"address":""},{"id":1047,"name":"高新区人民医院","lat":31.313095,"lng":120.545297,"address":""},{"id":1048,"name":"东浜新苑","lat":31.314085,"lng":120.549502,"address":""},{"id":1049,"name":"玉山路淮海路南","lat":31.28794,"lng":120.562034,"address":""},{"id":1050,"name":"玉山路黄埔路","lat":31.288343,"lng":120.566196,"address":""},{"id":1051,"name":"狮山街道","lat":31.282109,"lng":120.568707,"address":""},{"id":1052,"name":"赛格电子","lat":31.282604,"lng":120.573277,"address":""},{"id":1053,"name":"鑫苑国际城市花园","lat":31.314965,"lng":120.561776,"address":""},{"id":1055,"name":"苏州科技创业园","lat":31.275617,"lng":120.537271,"address":""},{"id":1056,"name":"新升新苑南门","lat":31.277799,"lng":120.537508,"address":""},{"id":1057,"name":"天都花园","lat":31.28044,"lng":120.545404,"address":""},{"id":1058,"name":"新区公园","lat":31.305358,"lng":120.54107,"address":""},{"id":1059,"name":"长江路何山路","lat":31.305725,"lng":120.546069,"address":""},{"id":1060,"name":"时代街","lat":31.307595,"lng":120.559759,"address":""},{"id":1061,"name":"马浜花园北门","lat":31.318668,"lng":120.556219,"address":""},{"id":1062,"name":"佳林花苑","lat":31.313883,"lng":120.558064,"address":""},{"id":1063,"name":"康佳花园","lat":31.313498,"lng":120.539846,"address":""},{"id":1064,"name":"高新区二中","lat":31.312178,"lng":120.535941,"address":""},{"id":1065,"name":"塔园路枫津大街","lat":31.310088,"lng":120.552464,"address":""},{"id":1066,"name":"名馨花园","lat":31.281778,"lng":120.55903,"address":""},{"id":1067,"name":"嘉业阳光","lat":31.281302,"lng":120.537357,"address":""},{"id":1068,"name":"迎宾路晋源路西南","lat":31.269381,"lng":120.579071,"address":""},{"id":1069,"name":"枫桥中队","lat":31.309612,"lng":120.54491,"address":""},{"id":1070,"name":"明基医院","lat":31.280348,"lng":120.551648,"address":""},{"id":1071,"name":"白领公寓","lat":31.279248,"lng":120.548108,"address":"苏州市玉屏路锦峰路"},{"id":1072,"name":"新创竹园","lat":31.27547,"lng":120.545855,"address":""},{"id":1073,"name":"馨泰花苑北门","lat":31.287536,"lng":120.554523,"address":""},{"id":1074,"name":"山水华庭","lat":31.268786,"lng":120.554155,"address":""},{"id":1075,"name":"塔园路狮山路口","lat":31.293753,"lng":120.558922,"address":""},{"id":1076,"name":"塔园路邓蔚路口","lat":31.299537,"lng":120.556487,"address":""},{"id":1077,"name":"滨河路马运路口","lat":31.319447,"lng":120.558654,"address":""},{"id":1078,"name":"珠江路金色家园","lat":31.291147,"lng":120.543941,"address":""},{"id":1079,"name":"长江路保健中心","lat":31.341783,"lng":120.550829,"address":""},{"id":1080,"name":"塔园路景山路口","lat":31.322651,"lng":120.55859,"address":""},{"id":1081,"name":"竹园路万枫家园","lat":31.282537,"lng":120.540304,"address":""},{"id":1082,"name":"黄埔街狮山国际","lat":31.285488,"lng":120.575223,"address":""},{"id":1083,"name":"美田山水之恋","lat":31.282245,"lng":120.582079,"address":""},{"id":1151,"name":"清山酒店","lat":31.329006,"lng":120.426807,"address":""},{"id":1152,"name":"苏高新软件园","lat":31.325963,"lng":120.422215,"address":""},{"id":1153,"name":"实训基地二期","lat":31.317091,"lng":120.419984,"address":""},{"id":1154,"name":"科技城生活馆","lat":31.332892,"lng":120.425777,"address":"苏州市以升南路科普路"},{"id":1155,"name":"科技城管委会","lat":31.335421,"lng":120.417967,"address":""},{"id":1157,"name":"科技城微系统园","lat":31.333845,"lng":120.417066,"address":"苏州市玉屏路锦峰路"},{"id":1158,"name":"医工所","lat":31.32611,"lng":120.417237,"address":""},{"id":1159,"name":"高博学院","lat":31.322407,"lng":120.416207,"address":""},{"id":1160,"name":"科技城派出所","lat":31.360197,"lng":120.431657,"address":""},{"id":1161,"name":"水秀苑东","lat":31.343082,"lng":120.428524,"address":""},{"id":1162,"name":"科技城标准厂房","lat":31.361809,"lng":120.417452,"address":""},{"id":1163,"name":"青山路金沙江路口","lat":31.350705,"lng":120.41213,"address":""},{"id":1164,"name":"永新秀郡","lat":31.345904,"lng":120.434532,"address":""},{"id":1165,"name":"医疗器械产业园","lat":31.312545,"lng":120.437021,"address":""},{"id":1166,"name":"科技大厦东","lat":31.328896,"lng":120.435777,"address":""},{"id":1167,"name":"科技大厦北","lat":31.330399,"lng":120.433373,"address":""},{"id":1168,"name":"太湖大道龙山路口","lat":31.338097,"lng":120.423074,"address":""},{"id":1169,"name":"诺贝尔湖","lat":31.338976,"lng":120.437579,"address":""},{"id":1170,"name":"苏州科技城中学","lat":31.348249,"lng":120.419469,"address":""},{"id":1171,"name":"科技城公租房","lat":31.376466,"lng":120.420284,"address":""},{"id":1172,"name":"MAX未来城","lat":31.34583,"lng":120.422001,"address":""},{"id":1173,"name":"地税办公楼","lat":31.328135,"lng":120.440261,"address":""},{"id":1174,"name":"科秀路科技大厦","lat":31.326092,"lng":120.440776,"address":""},{"id":1175,"name":"科普路锦峰路","lat":31.32869,"lng":120.438362,"address":""},{"id":1176,"name":"科技城中央广场","lat":31.34408,"lng":120.437823,"address":""},{"id":1177,"name":"科技城山湖湾","lat":31.345183,"lng":120.435758,"address":""},{"id":1178,"name":"科技城协鑫光伏","lat":31.3743,"lng":120.442424,"address":""},{"id":1179,"name":"嘉陵江路五台山路","lat":31.377148,"lng":120.442519,"address":""},{"id":1201,"name":"石湖景区","lat":31.256688,"lng":120.586152,"address":"苏州市科灵路济慈路"},{"id":1202,"name":"苏州医药科技学院","lat":31.259128,"lng":120.577762,"address":""},{"id":1203,"name":"卫生职业技术学院","lat":31.258988,"lng":120.5848,"address":""},{"id":1204,"name":"学府社区服务站","lat":31.254506,"lng":120.581968,"address":""},{"id":1205,"name":"科景路学府路","lat":31.251846,"lng":120.577033,"address":""},{"id":1206,"name":"苏州经贸职业学院","lat":31.253592,"lng":120.568943,"address":""},{"id":1207,"name":"苏州科技学院","lat":31.24869,"lng":120.575594,"address":""},{"id":1208,"name":"江苏邮电技校","lat":31.245808,"lng":120.574028,"address":""},{"id":1209,"name":"科技技师学院","lat":31.255148,"lng":120.574737,"address":""},{"id":1210,"name":"科技学院西","lat":31.249736,"lng":120.570209,"address":""},{"id":1221,"name":"东渚镇政府","lat":31.335054,"lng":120.401638,"address":""},{"id":1222,"name":"东渚集贸市场","lat":31.333588,"lng":120.399835,"address":""},{"id":1223,"name":"龙景花园五区","lat":31.330399,"lng":120.389149,"address":""},{"id":1224,"name":"龙景花园二区","lat":31.329446,"lng":120.394084,"address":""},{"id":1225,"name":"东渚交警中队","lat":31.336246,"lng":120.405843,"address":""},{"id":1226,"name":"东渚中学","lat":31.337437,"lng":120.410371,"address":""},{"id":1227,"name":"龙惠花苑","lat":31.341377,"lng":120.410993,"address":""},{"id":1228,"name":"龙景花园一区东门","lat":31.335076,"lng":120.406279,"address":""},{"id":1229,"name":"龙景花园三区一区","lat":31.336923,"lng":120.403759,"address":""},{"id":1271,"name":"山河佳苑","lat":31.305138,"lng":120.513411,"address":""},{"id":1272,"name":"白马涧龙池景区","lat":31.303122,"lng":120.499291,"address":""},{"id":1273,"name":"白马涧进口处","lat":31.310162,"lng":120.503497,"address":""},{"id":1274,"name":"枫桥派出所","lat":31.314928,"lng":120.501609,"address":""},{"id":1275,"name":"联港路马涧路","lat":31.318374,"lng":120.508218,"address":""},{"id":1276,"name":"公交场站","lat":31.315331,"lng":120.49706,"address":""},{"id":1277,"name":"太湖大道建林路","lat":31.32336,"lng":120.493026,"address":""},{"id":1278,"name":"枫桥街道","lat":31.318998,"lng":120.515556,"address":""},{"id":1279,"name":"马涧小区一区北门","lat":31.322486,"lng":120.509882,"address":""},{"id":1321,"name":"浒墅关大润发","lat":31.36835,"lng":120.508894,"address":""},{"id":1322,"name":"新港名墅","lat":31.357343,"lng":120.51039,"address":""},{"id":1323,"name":"鸿福花园","lat":31.360513,"lng":120.509613,"address":""},{"id":1324,"name":"吴县中学","lat":31.365593,"lng":120.495268,"address":""},{"id":1325,"name":"大白荡生态公园","lat":31.353692,"lng":120.510943,"address":""},{"id":1326,"name":"阳山花苑公交站","lat":31.370549,"lng":120.489957,"address":""},{"id":1327,"name":"阳山花苑","lat":31.369706,"lng":120.490676,"address":""},{"id":1328,"name":"市民广场公园","lat":31.367004,"lng":120.490848,"address":""},{"id":1329,"name":"理想城","lat":31.342678,"lng":120.537679,"address":""},{"id":1330,"name":"东吴博物馆","lat":31.347773,"lng":120.514698,"address":""},{"id":1331,"name":"阳山花园一区站台","lat":31.372274,"lng":120.505692,"address":""},{"id":1371,"name":"华通花园二区","lat":31.374304,"lng":120.47528,"address":""},{"id":1372,"name":"华通花园四区","lat":31.376008,"lng":120.466976,"address":""},{"id":1373,"name":"华通花园三区","lat":31.377721,"lng":120.476503,"address":""},{"id":1374,"name":"通安科技产业园","lat":31.377465,"lng":120.46159,"address":""},{"id":1375,"name":"通安农贸市场","lat":31.369633,"lng":120.45629,"address":""},{"id":1377,"name":"华通花园一区","lat":31.374836,"lng":120.479389,"address":""},{"id":1378,"name":"通安中学","lat":31.381686,"lng":120.47528,"address":""},{"id":1379,"name":"真北路西塘路口","lat":31.383711,"lng":120.459761,"address":""},{"id":1421,"name":"浒墅关镇政府","lat":31.375752,"lng":120.515277,"address":""},{"id":1422,"name":"惠丰花园","lat":31.372711,"lng":120.517659,"address":""},{"id":1423,"name":"浒杨路安杨路西","lat":31.383336,"lng":120.530834,"address":""},{"id":1424,"name":"城际广场","lat":31.371685,"lng":120.529139,"address":""},{"id":1425,"name":"新浒花园","lat":31.37991,"lng":120.526199,"address":""},{"id":1426,"name":"金櫚湾东门","lat":31.382658,"lng":120.525534,"address":""},{"id":1427,"name":"城铁新区站西","lat":31.372601,"lng":120.522165,"address":""},{"id":1428,"name":"新浒花园三区","lat":31.381101,"lng":120.521784,"address":""},{"id":1429,"name":"新浒花园一区二区","lat":31.381594,"lng":120.535427,"address":""},{"id":1430,"name":"浒杨路永莲路","lat":31.388218,"lng":120.532687,"address":""},{"id":1471,"name":"绣品街口","lat":31.338866,"lng":120.34677,"address":""},{"id":1472,"name":"绣品街镇湖街道办","lat":31.329831,"lng":120.347425,"address":""},{"id":1473,"name":"太湖湿地公园","lat":31.324717,"lng":120.347586,"address":""},{"id":1474,"name":"绣馆街","lat":31.330307,"lng":120.345966,"address":""},{"id":1475,"name":"太湖大堤","lat":31.337584,"lng":120.331192,"address":""},{"id":1476,"name":"旅游服务中心","lat":31.358621,"lng":120.333552,"address":""},{"id":2001,"name":"蠡墅花园","lat":31.245966,"lng":120.620506,"address":"长蠡路天华苑东区门口"},{"id":2002,"name":"S半岛","lat":31.242004,"lng":120.623209,"address":"澄湖西路澄湖桥西S半岛清水湾花园"},{"id":2003,"name":"枫津路天灵路口北","lat":31.245354,"lng":120.636647,"address":"枫津路天灵路口西北角"},{"id":2004,"name":"城南大厦","lat":31.248684,"lng":120.636462,"address":"枫津路广建路口北城南大厦门口"},{"id":2005,"name":"德敏花园","lat":31.257275,"lng":120.633549,"address":"白云街德敏花园出口对面"},{"id":2006,"name":"碧波菜场","lat":31.257119,"lng":120.636063,"address":"枫津路白云街交叉口"},{"id":2007,"name":"迎春南路白云街口","lat":31.257342,"lng":120.641145,"address":"迎春南路白云街口西南澹台湖大桥南"},{"id":2008,"name":"钱家桥","lat":31.248326,"lng":120.643763,"address":"迎春南路宝尹花园门口南"},{"id":2009,"name":"迎春路嘉宝三期","lat":31.264874,"lng":120.640126,"address":"迎春南路与文曲路交叉口"},{"id":2010,"name":"苏苑小学南","lat":31.267799,"lng":120.63702,"address":"宝带东路嘉宝广场斜对面"},{"id":2011,"name":"水香街长兴街农行","lat":31.263998,"lng":120.621514,"address":"水香街长兴街东南角农行"},{"id":2012,"name":"水香街苏州银行","lat":31.27003,"lng":120.621117,"address":"水香街先奇街交叉口"},{"id":2013,"name":"宝带路水香街口","lat":31.267244,"lng":120.62156,"address":"宝带西路水香街口东北角"},{"id":2014,"name":"龙西街道办事处","lat":31.272508,"lng":120.618701,"address":"吴中西路水香二村对面"},{"id":2015,"name":"龙西路先奇街口","lat":31.269977,"lng":120.61733,"address":"龙西路先奇街口龙苑邨对面"},{"id":2016,"name":"东吴国际西侧","lat":31.27238,"lng":120.626273,"address":"吴中西路东吴国际西侧"},{"id":2017,"name":"吴中路公园巷门口","lat":31.272352,"lng":120.631514,"address":"吴中东路公园路口"},{"id":2018,"name":"残联","lat":31.274461,"lng":120.631398,"address":"苏苑街与公园巷交叉口"},{"id":2019,"name":"新姜窑花园","lat":31.243643,"lng":120.512686,"address":"南亭路新姜窑花园南门东"},{"id":2020,"name":"翠坊街联华超市","lat":31.245877,"lng":120.518526,"address":"翠坊街木渎实验中学东站台后"},{"id":2021,"name":"金山路花苑街口","lat":31.260921,"lng":120.517997,"address":"金山路花苑街东南"},{"id":2022,"name":"苏福路游四停车场","lat":31.257296,"lng":120.507134,"address":"中山西路灵天路交叉口"},{"id":2023,"name":"木渎高级中学","lat":31.277771,"lng":120.503025,"address":"天平山附近木渎高级学校门口"},{"id":2025,"name":"新苏国际","lat":31.269182,"lng":120.628343,"address":"东吴北路新苏商城门口"},{"id":2026,"name":"苏苑小学西","lat":31.269328,"lng":120.635373,"address":"县前街到底月浜街口"},{"id":2027,"name":"夏莲路嘉宝一期","lat":31.267856,"lng":120.643503,"address":"宝带东路夏莲路交叉口"},{"id":2028,"name":"吴中商城东","lat":31.253719,"lng":120.636178,"address":"枫津路公交一路新村北站台后"},{"id":2029,"name":"吴中法院","lat":31.252861,"lng":120.631975,"address":"石湖东路吴中法院与建设银行中间"},{"id":2030,"name":"美之国","lat":31.266522,"lng":120.611531,"address":"宝带西路美之国出口东"},{"id":2031,"name":"夏莲花园","lat":31.272662,"lng":120.642712,"address":"吴中东路夏莲路夏莲花园对面"},{"id":2032,"name":"财政局","lat":31.270903,"lng":120.638777,"address":"迎春北路吴中区财政局门口百盛天地斜对面"},{"id":2033,"name":"苏苑饭店","lat":31.274156,"lng":120.627973,"address":"东吴北路苏苑饭店门口北"},{"id":2034,"name":"中元商厦","lat":31.264443,"lng":120.628681,"address":"东吴北路中元商厦门口"},{"id":2035,"name":"吴中商城西","lat":31.254859,"lng":120.629145,"address":"东吴南路吴中商城西站台后"},{"id":2036,"name":"阳光水榭","lat":31.246579,"lng":120.629486,"address":"东吴南路商业街入口南"},{"id":2037,"name":"吴中汽车站","lat":31.248929,"lng":120.632667,"address":"广建路吴中汽车站东苏州银行对面"},{"id":2038,"name":"龙西路水香五村","lat":31.274544,"lng":120.616657,"address":"龙西路水香五村龙西新村对面"},{"id":2039,"name":"木渎人民医院","lat":31.255209,"lng":120.516192,"address":"木渎人民医院斜对面"},{"id":2040,"name":"木渎轻轨站4号站","lat":31.275367,"lng":120.518053,"address":"金山路竹园路东北角"},{"id":2042,"name":"丽丰广场","lat":31.267061,"lng":120.631835,"address":"宝带东路东苑路东南"},{"id":2043,"name":"木渎轻轨站2号站","lat":31.274748,"lng":120.518665,"address":"竹园路金山路东南"},{"id":2044,"name":"宝带西路供电公司","lat":31.267148,"lng":120.615943,"address":"宝带西路宝带花园出口西"},{"id":2046,"name":"太湖旅客服务中心","lat":31.22523,"lng":120.443839,"address":""},{"id":2050,"name":"吴中大道西端","lat":31.192051,"lng":120.488543,"address":""},{"id":2051,"name":"太湖公园停车场","lat":31.22296,"lng":120.46653,"address":""},{"id":2052,"name":"灵湖嘴公园","lat":31.136944,"lng":120.44158,"address":""},{"id":2053,"name":"东山游客中心","lat":31.09277,"lng":120.42457,"address":""},{"id":2070,"name":"蠡谐大厦","lat":31.255657,"lng":120.621517,"address":""},{"id":2071,"name":"永城国际广场","lat":31.252088,"lng":120.621634,"address":""},{"id":2072,"name":"蠡墅公交站台","lat":31.23669,"lng":120.61582,"address":""},{"id":2073,"name":"蠡墅公交总站","lat":31.23253,"lng":120.61588,"address":""},{"id":2074,"name":"香雪海广场","lat":31.236415,"lng":120.623649,"address":""},{"id":2075,"name":"范蠡公园","lat":31.24065,"lng":120.61578,"address":""},{"id":2076,"name":"蠡墅花园天怡苑南","lat":31.243177,"lng":120.618189,"address":""},{"id":2077,"name":"蠡墅花园天韵苑西","lat":31.254677,"lng":120.611708,"address":""},{"id":2078,"name":"吴中区政府","lat":31.268189,"lng":120.638522,"address":""},{"id":2079,"name":"佳运花园","lat":31.267279,"lng":120.629481,"address":""},{"id":2080,"name":"吴中名邸","lat":31.267996,"lng":120.625236,"address":""},{"id":2081,"name":"典雅花园","lat":31.266658,"lng":120.618472,"address":""},{"id":2082,"name":"水香六村","lat":31.281982,"lng":120.619963,"address":""},{"id":2083,"name":"盘蠡苑","lat":31.274875,"lng":120.620947,"address":""},{"id":2084,"name":"吴中蜜蜂城","lat":31.247827,"lng":120.617246,"address":""},{"id":2085,"name":"石湖公园东门","lat":31.259149,"lng":120.610302,"address":""},{"id":2086,"name":"友新路安置房","lat":31.250992,"lng":120.617542,"address":""},{"id":2087,"name":"宝盛假日酒店","lat":31.268294,"lng":120.642857,"address":""},{"id":2089,"name":"吴中东路与月浜街","lat":31.277395,"lng":120.641922,"address":""},{"id":2090,"name":"越湖名邸花园西门","lat":31.238214,"lng":120.628021,"address":""},{"id":2091,"name":"吴中区交警中队","lat":31.269914,"lng":120.653282,"address":""},{"id":2092,"name":"吴中区城西中学","lat":31.278463,"lng":120.621203,"address":""},{"id":2101,"name":"东山宾馆路口","lat":31.095159,"lng":120.413203,"address":""},{"id":2102,"name":"岱山湾停车场","lat":31.1125,"lng":120.4011,"address":""},{"id":2103,"name":"丰圻大桥路口","lat":31.104,"lng":120.3863,"address":""},{"id":2104,"name":"红湾村停车场","lat":31.0919,"lng":120.3806,"address":""},{"id":2105,"name":"白沙村","lat":31.02392,"lng":120.383416,"address":""},{"id":2106,"name":"陆巷古村","lat":31.081645,"lng":120.365868,"address":""},{"id":2107,"name":"沙滩山码头","lat":31.071315,"lng":120.368136,"address":""},{"id":2108,"name":"长沂码头","lat":31.043949,"lng":120.339026,"address":""},{"id":2109,"name":"杨湾","lat":31.049982,"lng":120.374779,"address":""},{"id":2110,"name":"大咀山桥路口","lat":31.049456,"lng":120.400354,"address":""},{"id":2112,"name":"雕花楼","lat":31.085001,"lng":120.412054,"address":""},{"id":2113,"name":"新镇区口","lat":31.084351,"lng":120.425124,"address":""},{"id":2114,"name":"四季广场","lat":31.08298,"lng":120.41111,"address":""},{"id":2115,"name":"紫金庵","lat":31.065681,"lng":120.393077,"address":""},{"id":2141,"name":"东胥香花园","lat":31.231325,"lng":120.487191,"address":""},{"id":2142,"name":"胥口便民服务中心","lat":31.235601,"lng":120.481873,"address":""},{"id":2143,"name":"新岛咖啡","lat":31.22973,"lng":120.47273,"address":""},{"id":2144,"name":"添壇公园","lat":31.23293,"lng":120.47566,"address":""},{"id":2145,"name":"帝豪花园","lat":31.241722,"lng":120.485458,"address":""},{"id":2146,"name":"吉祥小区","lat":31.237824,"lng":120.498658,"address":""},{"id":2147,"name":"胥口房产管理所","lat":31.247492,"lng":120.484802,"address":""},{"id":2148,"name":"胥口中市街","lat":31.239194,"lng":120.48526,"address":""},{"id":2149,"name":"胥口中国农业银行","lat":31.235547,"lng":120.484681,"address":""},{"id":2150,"name":"胥口中学","lat":31.233316,"lng":120.489028,"address":""},{"id":2151,"name":"尼盛小区","lat":31.232548,"lng":120.494297,"address":""},{"id":2152,"name":"太湖新城","lat":31.2388,"lng":120.4866,"address":""},{"id":2153,"name":"万物生活广场","lat":31.253817,"lng":120.484986,"address":""},{"id":2171,"name":"红枫广场","lat":31.295069,"lng":120.526979,"address":""},{"id":2172,"name":"天平山景区","lat":31.289665,"lng":120.509008,"address":""},{"id":2173,"name":"馨乐花园B区","lat":31.269891,"lng":120.518153,"address":""},{"id":2174,"name":"木渎古镇游览中心","lat":31.25409,"lng":120.50448,"address":""},{"id":2175,"name":"同春居民委员会","lat":31.258223,"lng":120.527271,"address":""},{"id":2176,"name":"天平花园","lat":31.274404,"lng":120.524508,"address":""},{"id":2177,"name":"木渎第二中学","lat":31.246411,"lng":120.525389,"address":""},{"id":2178,"name":"木渎新市民中心","lat":31.239977,"lng":120.524342,"address":""},{"id":2179,"name":"天平学院","lat":31.270708,"lng":120.560445,"address":""},{"id":2180,"name":"轻二路轻轨公司","lat":31.283266,"lng":120.55678,"address":""},{"id":2301,"name":"藏书老街","lat":31.279393,"lng":120.450276,"address":""},{"id":2302,"name":"穹窿山景区门口","lat":31.26892,"lng":120.44134,"address":""},{"id":2303,"name":"万鸟园","lat":31.258208,"lng":120.45465,"address":""},{"id":2304,"name":"孙武文化园","lat":31.256402,"lng":120.448066,"address":""},{"id":2321,"name":"旺山九龙潭","lat":31.2159,"lng":120.55457,"address":""},{"id":2322,"name":"旺山音乐茶庄","lat":31.21619,"lng":120.55168,"address":""},{"id":2323,"name":"旺山宝华寺停车场","lat":31.21716,"lng":120.54744,"address":""},{"id":2324,"name":"旺山游客中心","lat":31.21099,"lng":120.55069,"address":""},{"id":2341,"name":"海洋馆","lat":31.21761,"lng":120.38391,"address":""},{"id":2342,"name":"文化论坛","lat":31.21156,"lng":120.41187,"address":""},{"id":2343,"name":"太湖新天地","lat":31.221239,"lng":120.42921,"address":""},{"id":2344,"name":"香山花园东门","lat":31.231958,"lng":120.414959,"address":""},{"id":2345,"name":"香山花园西门","lat":31.232309,"lng":120.412439,"address":""},{"id":2346,"name":"舟山花园南门","lat":31.246677,"lng":120.425842,"address":""},{"id":2361,"name":"东吴外语师范学校","lat":31.233069,"lng":120.604634,"address":""},{"id":2362,"name":"天成影院东门","lat":31.230197,"lng":120.600331,"address":""},{"id":2363,"name":"教育园南区首末站","lat":31.226623,"lng":120.5919,"address":""},{"id":2364,"name":"文正学院","lat":31.21596,"lng":120.58681,"address":""},{"id":2365,"name":"人才市场","lat":31.214919,"lng":120.603066,"address":""},{"id":2366,"name":"SM百货","lat":31.222975,"lng":120.59884,"address":""},{"id":2367,"name":"石湖华城北门东","lat":31.228144,"lng":120.605909,"address":""},{"id":2368,"name":"石湖华城","lat":31.228796,"lng":120.609121,"address":""},{"id":2369,"name":"溪东新村三区南门","lat":31.217003,"lng":120.606682,"address":""},{"id":2370,"name":"越溪卫生院","lat":31.219995,"lng":120.593032,"address":""},{"id":2371,"name":"苏街小广场","lat":31.21509,"lng":120.58735,"address":""},{"id":2372,"name":"吴中行政服务中心","lat":31.219764,"lng":120.602231,"address":""},{"id":2373,"name":"国际教育园南门","lat":31.225137,"lng":120.601512,"address":""},{"id":2374,"name":"金悦苑东门","lat":31.221539,"lng":120.608371,"address":""},{"id":2375,"name":"开发区管委会","lat":31.22367,"lng":120.604526,"address":""},{"id":2376,"name":"广播电视大学","lat":31.203082,"lng":120.587395,"address":""},{"id":2377,"name":"吴中区阳光水榭","lat":31.247877,"lng":120.634143,"address":""},{"id":2378,"name":"阳光水韵","lat":31.245732,"lng":120.634192,"address":""},{"id":2379,"name":"石湖之韵广场","lat":31.231791,"lng":120.606704,"address":""},{"id":2380,"name":"旅游财经学院","lat":31.230143,"lng":120.597061,"address":""},{"id":2381,"name":"越溪街道办","lat":31.21281,"lng":120.58546,"address":""},{"id":2382,"name":"越溪街吴山街路口","lat":31.21149,"lng":120.58896,"address":""},{"id":2383,"name":"越湖花园","lat":31.20728,"lng":120.58402,"address":""},{"id":2384,"name":"越溪首末站","lat":31.21082,"lng":120.58552,"address":""},{"id":2385,"name":"溪翔新村一区","lat":31.215378,"lng":120.596998,"address":""},{"id":2386,"name":"瑞华医院","lat":31.211873,"lng":120.602841,"address":""},{"id":2387,"name":"溪东新村一区","lat":31.211139,"lng":120.608195,"address":""},{"id":2388,"name":"石湖华城南门","lat":31.225534,"lng":120.608007,"address":""},{"id":2389,"name":"现代园墅","lat":31.225882,"lng":120.614102,"address":""},{"id":2390,"name":"越秀苑","lat":31.222269,"lng":120.617443,"address":""},{"id":2391,"name":"简之韵花园","lat":31.217582,"lng":120.613756,"address":""},{"id":2392,"name":"招商小石城西区","lat":31.221736,"lng":120.621998,"address":""},{"id":2393,"name":"招商小石城","lat":31.220173,"lng":120.622833,"address":""},{"id":2394,"name":"新城金郡","lat":0,"lng":0,"address":""},{"id":2395,"name":"新城金郡北门","lat":31.227144,"lng":120.629903,"address":""},{"id":2396,"name":"南石湖花园","lat":31.228858,"lng":120.626359,"address":""},{"id":2397,"name":"越湖家天下","lat":31.232737,"lng":120.628246,"address":""},{"id":2398,"name":"旅思街与瑶泉街口","lat":31.230738,"lng":120.592816,"address":""},{"id":2399,"name":"石湖华城公交站","lat":31.230294,"lng":120.608649,"address":""},{"id":2400,"name":"玫瑰99","lat":31.238727,"lng":120.635113,"address":""},{"id":2401,"name":"文溪花苑","lat":31.203962,"lng":120.59581,"address":""},{"id":2402,"name":"石湖公园南门","lat":31.233196,"lng":120.61385,"address":""},{"id":2403,"name":"城南街道办事处","lat":31.243308,"lng":120.641271,"address":""},{"id":2404,"name":"越溪庭院","lat":31.20618,"lng":120.58673,"address":""},{"id":2405,"name":"新城金郡南门","lat":31.223747,"lng":120.629943,"address":""},{"id":2421,"name":"尹山湖一期广场","lat":31.251115,"lng":120.695998,"address":""},{"id":2422,"name":"尹山湖二期广场","lat":31.243451,"lng":120.687797,"address":""},{"id":2423,"name":"星岛仁恒","lat":31.284408,"lng":120.685097,"address":""},{"id":2424,"name":"湖岸名家","lat":31.281522,"lng":120.684064,"address":""},{"id":2425,"name":"独墅湖社区","lat":31.274439,"lng":120.682007,"address":""},{"id":2426,"name":"尹山湖商业广场","lat":31.259369,"lng":120.693456,"address":""},{"id":2427,"name":"南环桥批发市场","lat":31.270358,"lng":120.69563,"address":""},{"id":2428,"name":"苏州凌立工业园","lat":31.2605,"lng":120.683327,"address":""},{"id":2429,"name":"国香雅苑","lat":31.255503,"lng":120.668645,"address":""},{"id":2430,"name":"保利观湖国际","lat":31.252728,"lng":120.69112,"address":""},{"id":2432,"name":"黄潦泾别墅安置区","lat":31.236917,"lng":120.723949,"address":""},{"id":2433,"name":"尹东五村1区","lat":31.245709,"lng":120.715949,"address":""},{"id":2434,"name":"尹东五村2区","lat":31.243872,"lng":120.716776,"address":""},{"id":2435,"name":"交通技校","lat":31.238932,"lng":120.694902,"address":""},{"id":2436,"name":"特殊教育学校","lat":31.241884,"lng":120.674542,"address":""},{"id":2437,"name":"尹山湖商业水街","lat":31.251266,"lng":120.705942,"address":""},{"id":2438,"name":"中海独墅岛","lat":31.275369,"lng":120.693874,"address":""},{"id":2439,"name":"万业湖墅经典","lat":31.270805,"lng":120.685789,"address":""},{"id":2440,"name":"麦德龙吴中店","lat":31.269142,"lng":120.663129,"address":""},{"id":2441,"name":"好得家装饰城","lat":31.269891,"lng":120.668254,"address":""},{"id":2442,"name":"完美古玩城","lat":31.275524,"lng":120.664926,"address":""},{"id":2443,"name":"塘南新村南区","lat":31.271635,"lng":120.681167,"address":""},{"id":2444,"name":"塘南新村北区","lat":31.278988,"lng":120.683327,"address":""},{"id":2445,"name":"湖滨花园","lat":31.288578,"lng":120.68485,"address":""},{"id":2446,"name":"星屿仁恒","lat":31.293816,"lng":120.683327,"address":""},{"id":2447,"name":"独墅湖生态公园","lat":31.254272,"lng":120.711934,"address":""},{"id":2448,"name":"东吴寺","lat":31.261923,"lng":120.704173,"address":""},{"id":2449,"name":"姜家社区","lat":31.275554,"lng":120.661485,"address":""},{"id":2450,"name":"天运广场","lat":31.231178,"lng":120.731499,"address":""},{"id":3501,"name":"香城花园一区南门","lat":31.35568,"lng":120.63817,"address":""},{"id":3502,"name":"香城花园三期东门","lat":31.35576,"lng":120.63776,"address":""},{"id":3503,"name":"晨曦印象花园南门","lat":31.35434,"lng":120.6307,"address":""},{"id":3504,"name":"润元菜场","lat":31.35387,"lng":120.62801,"address":""},{"id":3505,"name":"香城花园四区南门","lat":31.353921,"lng":120.626908,"address":""},{"id":3507,"name":"轻轨齐门北大街西","lat":31.35306,"lng":120.621112,"address":""},{"id":3508,"name":"苏州市公安局","lat":31.35259,"lng":120.61231,"address":""},{"id":3509,"name":"古巷二村南门","lat":31.35975,"lng":120.63561,"address":""},{"id":3510,"name":"晨曦馨苑北门","lat":31.35902,"lng":120.6312,"address":""},{"id":3511,"name":"欧风丽苑南门","lat":31.35811,"lng":120.62646,"address":""},{"id":3512,"name":"湖沁花园菜场","lat":31.36142,"lng":120.64256,"address":""},{"id":3513,"name":"中翔装饰城","lat":31.36217,"lng":120.63892,"address":""},{"id":3514,"name":"华美家园","lat":31.35936,"lng":120.62117,"address":""},{"id":3516,"name":"市民广场","lat":31.36704,"lng":120.6426,"address":""},{"id":3517,"name":"阳澄湖中路电信","lat":0,"lng":0,"address":""},{"id":3518,"name":"阳澄湖中路电信局","lat":31.36441,"lng":120.63328,"address":""},{"id":3519,"name":"阳澄湖中路城管局","lat":31.36386,"lng":120.62945,"address":""},{"id":3520,"name":"中环百货广场","lat":31.36358,"lng":120.62541,"address":""},{"id":3521,"name":"陆幕桥东公交站","lat":31.36284,"lng":120.61985,"address":""},{"id":3522,"name":"智海广场","lat":31.36224,"lng":120.6113,"address":""},{"id":3523,"name":"御苑家园北门","lat":31.36172,"lng":120.59607,"address":""},{"id":3526,"name":"相城区区政府","lat":31.36883,"lng":120.64177,"address":""},{"id":3527,"name":"行政中心1号楼","lat":31.36943,"lng":120.6451,"address":""},{"id":3528,"name":"相城区审计局","lat":31.37102,"lng":120.6459,"address":""},{"id":3529,"name":"嘉元路澄阳路口","lat":31.37344,"lng":120.6461,"address":""},{"id":3530,"name":"嘉元路澄虹路口","lat":31.37242,"lng":120.6405,"address":""},{"id":3531,"name":"康桥丽都北门","lat":31.37119,"lng":120.63078,"address":""},{"id":3532,"name":"元和街道办事处","lat":31.37019,"lng":120.62436,"address":""},{"id":3533,"name":"天亚水景苑北门","lat":31.37645,"lng":120.64976,"address":""},{"id":3534,"name":"相城大道大润发","lat":31.37556,"lng":120.63684,"address":""},{"id":3535,"name":"奥食卡城美食馆","lat":31.37319,"lng":120.62856,"address":""},{"id":3536,"name":"相城人民医院","lat":31.37229,"lng":120.62305,"address":""},{"id":3537,"name":"绿色时光花园","lat":0,"lng":0,"address":""},{"id":3539,"name":"绿色时光花园","lat":31.37839,"lng":120.63011,"address":""},{"id":3540,"name":"知音别院南","lat":31.37745,"lng":120.62335,"address":""},{"id":3541,"name":"嘉和丽园北门","lat":31.3773,"lng":120.61905,"address":""},{"id":3543,"name":"春天花园北门","lat":31.37945,"lng":120.6061,"address":""},{"id":3544,"name":"玉成家园南门","lat":31.37889,"lng":120.6099,"address":""},{"id":3545,"name":"华美家园","lat":0,"lng":0,"address":""},{"id":3547,"name":"相城市民服务中心","lat":31.38672,"lng":120.62709,"address":""},{"id":3548,"name":"康景苑","lat":31.36754,"lng":120.6496,"address":""}]}